{
  "type": "FeatureCollection",
  "features": [
    {"type":"Feature","properties":{"county":"Cape Breton","address":"1482 George Street","type":"Regional","town":"Sydney","facility":"Cape Breton Regional Hospital"},"geometry":{"type":"Point","coordinates":[-60.174133616836095,46.1130158306037]}},{"type":"Feature","properties":{"county":"Cape Breton","address":"520 Purves Street","type":"Community","town":"North Sydney","facility":"Northside General Hospital"},"geometry":{"type":"Point","coordinates":[-60.23555151227749,46.21820836429978]}},{"type":"Feature","properties":{"county":"Victoria","address":"30 Old Margaree Road","type":"Community","town":"Baddeck","facility":"Victoria County Memorial Hospital"},"geometry":{"type":"Point","coordinates":[-60.75602895190468,46.100263898319795]}},{"type":"Feature","properties":{"county":"Inverness","address":"39 James Street","type":"Community","town":"Inverness","facility":"Inverness Consolidated Memorial Hospital"},"geometry":{"type":"Point","coordinates":[-61.30484314307468,46.22696781337693]}},{"type":"Feature","properties":{"county":"Pictou","address":"835 East River Road","type":"Regional","town":"New Glasgow","facility":"Aberdeen Hospital"},"geometry":{"type":"Point","coordinates":[-62.64326836972356,45.5729758405446]}},{"type":"Feature","properties":{"county":"Cape Breton","address":"716 King Street","type":"Community","town":"New Waterford","facility":"New Waterford Consolidated Hospital"},"geometry":{"type":"Point","coordinates":[-60.085793288911454,46.239863345496474]}},{"type":"Feature","properties":{"county":"Richmond","address":"138 Hospital Road","type":"Community","town":"Evanston","facility":"Strait - Richmond Hospital"},"geometry":{"type":"Point","coordinates":[-61.22292639766177,45.61708351662631]}},{"type":"Feature","properties":{"county":"Inverness","address":"15102 Cabot Trail","type":"Community Health Centre","town":"Cheticamp","facility":"Sacred Heart Community Health Centre"},"geometry":{"type":"Point","coordinates":[-61.015063349964386,46.623522547371586]}},{"type":"Feature","properties":{"county":"Cape Breton","address":"300 South Street","type":"Community","town":"Glace Bay","facility":"Glace Bay Health Care Facility"},"geometry":{"type":"Point","coordinates":[-59.938572836651716,46.18321184114736]}},{"type":"Feature","properties":{"county":"Antigonish","address":"25 Bay Street","type":"Regional","town":"Antigonish","facility":"St. Martha’s Regional Hospital"},"geometry":{"type":"Point","coordinates":[-61.98219333746746,45.62817596985708]}},{"type":"Feature","properties":{"county":"Guysborough","address":"1746 Union Street","type":"Community","town":"Canso","facility":"Eastern Memorial Hospital"},"geometry":{"type":"Point","coordinates":[-60.98400464643825,45.33262820682038]}},{"type":"Feature","properties":{"county":"Pictou","address":"222 Haliburton Road","type":"Community Health Centre","town":"Pictou","facility":"Sutherland Harris Memorial Hospital"},"geometry":{"type":"Point","coordinates":[-62.72703251932275,45.67651539921786]}},{"type":"Feature","properties":{"county":"Victoria","address":"32610 Cabot Trail","type":"Community Health Centre","town":"Neil’s Harbour","facility":"Buchanan Memorial Community Health Centre"},"geometry":{"type":"Point","coordinates":[-60.33432729802968,46.81056959301277]}},{"type":"Feature","properties":{"county":"Guysborough","address":"91 Hospital Road","type":"Community","town":"Sherbrooke","facility":"St. Mary’s Memorial Hospital"},"geometry":{"type":"Point","coordinates":[-61.981780294520306,45.14693579634446]}},{"type":"Feature","properties":{"county":"Kings","address":"23 Earnscliffe Avenue","type":"Community Health Centre","town":"Wolfville","facility":"Eastern Kings Memorial Community Health Centre"},"geometry":{"type":"Point","coordinates":[-64.37074371585221,45.08760374819833]}},{"type":"Feature","properties":{"county":"Hants","address":"89 Payzant Drive","type":"Community","town":"Windsor","facility":"Hants Community Hospital"},"geometry":{"type":"Point","coordinates":[-64.12037375298009,44.98638355369311]}},{"type":"Feature","properties":{"county":"Queens","address":"175 School Street","type":"Community","town":"Liverpool","facility":"Queens General Hospital"},"geometry":{"type":"Point","coordinates":[-64.70559426892093,44.03765341536023]}},{"type":"Feature","properties":{"county":"Annapolis","address":"462 Main Street","type":"Community","town":"Middleton","facility":"Soldiers Memorial Hospital"},"geometry":{"type":"Point","coordinates":[-65.05933935701924,44.94673391509305]}},{"type":"Feature","properties":{"county":"Shelburne","address":"1606 Lake Road","type":"Community","town":"Sandy Point","facility":"Roseway Hospital"},"geometry":{"type":"Point","coordinates":[-65.30953110510069,43.74999033372275]}},{"type":"Feature","properties":{"county":"Kings","address":"121 Orchard Street","type":"Community Health Centre","town":"Berwick","facility":"Western Kings Memorial Health Centre"},"geometry":{"type":"Point","coordinates":[-64.73657929405101,45.0366967359491]}},{"type":"Feature","properties":{"county":"Guysborough","address":"10560 Route 16","type":"Community","town":"Guysborough","facility":"Guysborough Memorial Hospital"},"geometry":{"type":"Point","coordinates":[-61.5071355034544,45.40234081804432]}},{"type":"Feature","properties":{"county":"Yarmouth","address":"60 Vancouver Street","type":"Regional","town":"Yarmouth","facility":"Yarmouth Regional Hospital"},"geometry":{"type":"Point","coordinates":[-66.12156874783281,43.850524495228235]}},{"type":"Feature","properties":{"county":"Annapolis","address":"821 St. George Street","type":"Community Health Centre","town":"Annapolis Royal","facility":"Annapolis Community Health Centre"},"geometry":{"type":"Point","coordinates":[-65.50180436685771,44.73657466491257]}},{"type":"Feature","properties":{"county":"Kings","address":"150 Exhibition Street","type":"Regional","town":"Kentville","facility":"Valley Regional Hospital"},"geometry":{"type":"Point","coordinates":[-64.500889798259,45.08266472523682]}},{"type":"Feature","properties":{"county":"Cumberland","address":"260 Gulf Shore Road","type":"Community","town":"Pugwash","facility":"North Cumberland Memorial Hospital"},"geometry":{"type":"Point","coordinates":[-63.658904768367535,45.85615154386532]}},{"type":"Feature","properties":{"county":"Cumberland","address":"19428 Highway 2","type":"Regional","town":"Upper Nappan","facility":"Cumberland Regional Health Care Centre"},"geometry":{"type":"Point","coordinates":[-64.19769949378933,45.803440001139904]}},{"type":"Feature","properties":{"county":"Halifax","address":"40 Freer Lane","type":"Community Health Centre","town":"Sackville","facility":"Cobequid Community Health Centre"},"geometry":{"type":"Point","coordinates":[-63.6586009337315,44.756916674813866]}},{"type":"Feature","properties":{"county":"Halifax","address":"3064 Highway 2","type":"Environmental Health","town":"Fall River","facility":"Integrated Chronic Care Service"},"geometry":{"type":"Point","coordinates":[-63.60599522342205,44.81001215566181]}},{"type":"Feature","properties":{"county":"Lunenburg","address":"14 High Street","type":"Community","town":"Lunenburg","facility":"Fishermen's Memorial Hospital"},"geometry":{"type":"Point","coordinates":[-64.32695243762808,44.3822758294343]}},{"type":"Feature","properties":{"county":"Lunenburg","address":"90 Glen Allan Drive","type":"Regional","town":"Bridgewater","facility":"South Shore Regional Hospital"},"geometry":{"type":"Point","coordinates":[-64.51077334456812,44.38313653214071]}},{"type":"Feature","properties":{"county":"Cumberland","address":"50 Jenks Avenue","type":"Community","town":"Parrsboro","facility":"South Cumberland Community Care Centre"},"geometry":{"type":"Point","coordinates":[-64.32593916226105,45.409087171378324]}},{"type":"Feature","properties":{"county":"Colchester","address":"110 Blair Avenue","type":"Community","town":"Tatamagouche","facility":"Lillian Fraser Memorial Hospital"},"geometry":{"type":"Point","coordinates":[-63.29635970402658,45.71153621241759]}},{"type":"Feature","properties":{"county":"Halifax","address":"7704 Highway 7","type":"Community","town":"Musquodoboit Harbour","facility":"Twin Oaks Memorial Hospital"},"geometry":{"type":"Point","coordinates":[-63.158333445666635,44.78303534971087]}},{"type":"Feature","properties":{"county":"Cumberland","address":"3375 Highway 209","type":"Community Health Centre","town":"Advocate Harbour","facility":"Bayview Memorial Health Centre"},"geometry":{"type":"Point","coordinates":[-64.79483503032003,45.34621190232823]}},{"type":"Feature","properties":{"county":"Cumberland","address":"10 Princess Street","type":"Community","town":"Springhill","facility":"All Saints Springhill Hospital"},"geometry":{"type":"Point","coordinates":[-64.05159762320923,45.650499307025406]}},{"type":"Feature","properties":{"county":"Digby","address":"75 Warwick Street","type":"Community","town":"Digby","facility":"Digby General Hospital"},"geometry":{"type":"Point","coordinates":[-65.76166737432966,44.616533787903755]}},{"type":"Feature","properties":{"county":"Halifax","address":"5850/5980 University Avenue","type":"Tertiary","town":"Halifax","facility":"IWK Health Centre"},"geometry":{"type":"Point","coordinates":[-63.582908847707046,44.63765107239818]}},{"type":"Feature","properties":{"county":"Halifax","address":"88 Gloria McCluskey Avenue","type":"Rehabilitation","town":"Dartmouth","facility":"East Coast Forensic Hospital"},"geometry":{"type":"Point","coordinates":[-63.59190651331347,44.721318006872465]}},{"type":"Feature","properties":{"county":"Halifax","address":"1278 South Park Street","type":"Tertiary","town":"Halifax","facility":"QEII - Victoria General (VG) Site"},"geometry":{"type":"Point","coordinates":[-63.580402405169465,44.63840489234355]}},{"type":"Feature","properties":{"county":"Halifax","address":"300 Pleasant Street","type":"Tertiary","town":"Dartmouth","facility":"The Nova Scotia Hospital"},"geometry":{"type":"Point","coordinates":[-63.54888485020512,44.652052389368194]}},{"type":"Feature","properties":{"county":"Halifax","address":"22637 Highway 7","type":"Community","town":"Sheet Harbour","facility":"Eastern Shore Memorial Hospital"},"geometry":{"type":"Point","coordinates":[-62.53286404867581,44.920663210921994]}},{"type":"Feature","properties":{"county":"Halifax","address":"492 Archibald Brook Road","type":"Community","town":"Middle Musquodoboit","facility":"Musquodoboit Valley Memorial Hospital"},"geometry":{"type":"Point","coordinates":[-63.14037764272095,45.04028911493914]}},{"type":"Feature","properties":{"county":"Halifax","address":"1796 Summer Street","type":"Tertiary","town":"Halifax","facility":"QEII - Halifax Infirmary Site"},"geometry":{"type":"Point","coordinates":[-63.58709674369862,44.64541455900125]}},{"type":"Feature","properties":{"county":"Halifax","address":"1341 Summer Street","type":"Rehabilitation","town":"Halifax","facility":"Nova Scotia Rehabilitation Centre"},"geometry":{"type":"Point","coordinates":[-63.58183283938107,44.63970342623116]}},{"type":"Feature","properties":{"county":"Halifax","address":"325 Pleasant Street","type":"Regional","town":"Dartmouth","facility":"Dartmouth General Hospital"},"geometry":{"type":"Point","coordinates":[-63.547621423330824,44.653987611022856]}},{"type":"Feature","properties":{"county":"Kings","address":"1349 County Home Road","type":"Rehabilitation","town":"Cambridge","facility":"Kings Regional Health & Regional Rehabilitation Centre"},"geometry":{"type":"Point","coordinates":[-64.666451591963,45.05736471404286]}},{"type":"Feature","properties":{"county":"Colchester","address":"600 Abenaki Road","type":"Regional","town":"Truro","facility":"Colchester East Hants Health Centre"},"geometry":{"type":"Point","coordinates":[-63.303384805904166,45.34952312863823]}},{"type":"Feature","properties":{"county":"Richmond","address":"2313 Highway 206","type":"Out Patient/ Nursing Home","town":"Arichat","facility":"St. Anne's Community and Nursing"},"geometry":{"type":"Point","coordinates":[-61.03191108211205,45.51104210652296]}}]
}